[
    {
    "id": 524894,
    "name": "Москва",
    "state": "",
    "country": "RU",
    "coord": {
        "lon": 37.606667,
        "lat": 55.761665
        }
    },

    {
        "id": 498817,
        "name": "Санкт-Петербург",
        "state": "",
        "country": "RU",
        "coord": {
            "lon": 30.264168,
            "lat": 59.894444
        }
    },
    {
        "id": 501183,
        "name": "Ростов",
        "state": "",
        "country": "RU",
        "coord": {
            "lon": 39.41394,
            "lat": 57.191399
        }
    },

    {
        "id": 515003,
        "name": "Оренбург",
        "state": "",
        "country": "RU",
        "coord": {
            "lon": 55.098801,
            "lat": 51.772701
        }
    },

    {
        "id": 500096,
        "name": "Рязань",
        "state": "",
        "country": "RU",
        "coord": {
            "lon": 39.740002,
            "lat": 54.61972
        }
    },

    {
        "id": 551487,
        "name": "Казань",
        "state": "",
        "country": "RU",
        "coord": {
            "lon": 49.122139,
            "lat": 55.788738
        }
    },

    {
        "id": 542420,
        "name": "Краснодар",
        "state": "",
        "country": "RU",
        "coord": {
            "lon": 38.976944,
            "lat": 45.03278
        }
    },

    {
        "id": 491422,
        "name": "Сочи",
        "state": "",
        "country": "RU",
        "coord": {
            "lon": 39.730278,
            "lat": 43.599998
        }
    },

    {
        "id": 554234,
        "name": "Калининград",
        "state": "",
        "country": "RU",
        "coord": {
            "lon": 20.51095,
            "lat": 54.70649
        }
    },

    {
        "id": 538560,
        "name": "Курск",
        "state": "",
        "country": "RU",
        "coord": {
            "lon": 36.19389,
            "lat": 51.730282
        }
    },

    {
        "id": 472757,
        "name": "Волгоград",
        "state": "",
        "country": "RU",
        "coord": {
            "lon": 44.501839,
            "lat": 48.719391
        }
    },

    {
        "id": 499099,
        "name": "Самара",
        "state": "",
        "country": "RU",
        "coord": {
            "lon": 50.150002,
            "lat": 53.200001
        }
    },

    {
        "id": 540259,
        "name": "Крым",
        "state": "",
        "country": "RU",
        "coord": {
            "lon": 39.516369,
            "lat": 47.300251
        }
    },

    {
        "id": 561887,
        "name": "Гатчина",
        "state": "",
        "country": "RU",
        "coord": {
            "lon": 30.12833,
            "lat": 59.576389
        }
    },

    {
        "id": 2013348,
        "name": "Владивосток",
        "state": "",
        "country": "RU",
        "coord": {
            "lon": 131.873535,
            "lat": 43.105621
        }
    },

    {
        "id": 2023469,
        "name": "Иркутск",
        "state": "",
        "country": "RU",
        "coord": {
            "lon": 104.296387,
            "lat": 52.297779
        }
    }
]